{
  "district": "Centro Norte (Центр Север)",
  "district_type": "urban",
  "summary_ru": "Северная часть центра Овьедо — культурный район с Театром Кампоамор (место вручения Премии Принцессы Астурийской), уникальным дороманским фонтаном Фонкалада IX века (ЮНЕСКО), множеством скульптур под открытым небом и пешеходной улицей Пелайо. Район сочетает средневековое наследие с современной архитектурой.",
  "total_validated_pois": 8,
  "pois": [
    {
      "name": "Teatro Campoamor",
      "name_ru": "Театр Кампоамор",
      "category": "theater",
      "lat": 43.363055,
      "lon": -5.847793,
      "description": "Главный оперный театр Овьедо. Здесь ежегодно вручается Премия Принцессы Астурийской — одна из престижнейших наград Испании."
    },
    {
      "name": "Fuente de Foncalada",
      "name_ru": "Фонтан Фонкалада",
      "category": "monument",
      "lat": 43.3653,
      "lon": -5.845971,
      "description": "Дороманский фонтан IX века (правление Альфонсо III). Объект Всемирного наследия ЮНЕСКО — единственный сохранившийся пример средневековой гражданской инженерии."
    },
    {
      "name": "Monumento a la Concordia",
      "name_ru": "Монумент Согласия",
      "category": "sculpture",
      "lat": 43.363054,
      "lon": -5.846868,
      "description": "Бронзовая скульптурная группа (1997, Эсперанса д'Орс) — 6 фигур без опознавательных признаков, символизирующих согласие и гармонию."
    },
    {
      "name": "Plaza del Carbayón",
      "name_ru": "Площадь Карбайон",
      "category": "plaza",
      "lat": 43.362913,
      "lon": -5.847421,
      "description": "Историческая площадь перед Театром Кампоамор. На месте бывшего поля ярмарок и земель монастыря Санта-Клара (снесён 1845)."
    },
    {
      "name": "Calle Pelayo",
      "name_ru": "Улица Пелайо",
      "category": "street",
      "lat": 43.363022,
      "lon": -5.848496,
      "description": "Пешеходная улица с множеством скульптур, ресторанов и магазинов. Названа в 1869 в честь дона Пелайо — основателя Астурийского королевства."
    },
    {
      "name": "Culis Monumentalibus",
      "name_ru": "Кулис Монументалис",
      "category": "sculpture",
      "lat": 43.36303,
      "lon": -5.84808,
      "description": "Провокационная бронзовая скульптура Эдуардо Уркуло (2001) — увеличенные ягодицы весом 900 кг и высотой 4 метра."
    },
    {
      "name": "Esperanza Caminando",
      "name_ru": "Идущая Эсперанса",
      "category": "sculpture",
      "lat": 43.36295,
      "lon": -5.84835,
      "description": "Скульптура студентки, идущей с книгой — дань университетским традициям Овьедо. Напротив Театра Кампоамор."
    },
    {
      "name": "Gran Bulevar El Vasco",
      "name_ru": "Гран Бульвар Эль Васко",
      "category": "building",
      "lat": 43.3655828,
      "lon": -5.842606,
      "description": "Современный жилой и торговый комплекс на месте снесённого в 1989 модернового вокзала Эль Васко (1906).",
      "coord_source": "Nominatim: Calle Víctor Chávarri, Oviedo"
    }
  ],
  "demographics": {
    "source": "Padrón Municipal 2024 (Odina/Ayuntamiento de Oviedo)",
    "total_population": 10966,
    "foreign_total": 1314,
    "pct_foreign": 12.0,
    "foreign_by_continent": {
      "eu": 280,
      "europe_non_eu": 99,
      "america": 742,
      "africa": 111,
      "asia": 79,
      "oceania": 0,
      "stateless": 3
    }
  },
  "income": {
    "source": "Agencia Tributaria IRPF 2023, via La Voz de Asturias",
    "renta_bruta_media_2023": 46254,
    "oviedo_average_2023": 33407,
    "rank_in_oviedo": 3,
    "postal_code": "33003"
  }
}